City_ID,City,Country,Max Temp,Current Description,Lat,Lng,Hotel Name
0,Puerto Ayora,EC,80.56,broken clouds,-0.7393,-90.3518,Finch Bay Galapagos Hotel
1,Rikitea,PF,72.77,few clouds,-23.1203,-134.9692,People ThankYou
2,Busselton,AU,54.97,overcast clouds,-33.65,115.3333,Observatory Guest House
3,East London,ZA,62.71,overcast clouds,-33.0153,27.9116,Tu Casa
4,Marawi,PH,69.75,overcast clouds,7.9986,124.2928,Derogongan Residence
5,Mar Del Plata,AR,55.42,clear sky,-38.0023,-57.5575,Gran Hotel Mar del Plata
6,Cape Town,ZA,53.11,clear sky,-33.9258,18.4232,"Radisson Blu Hotel Waterfront, Cape Town"
7,Paamiut,GL,39.69,few clouds,61.994,-49.6678,Pistut
8,Georgetown,MY,82.89,thunderstorm with heavy rain,5.4112,100.3354,Cititel Penang
9,Ushuaia,AR,29.86,broken clouds,-54.8,-68.3,Albatross Hotel
11,Hobart,AU,50.25,clear sky,-42.8794,147.3294,St Ives Hobart Accommodation Tasmania
12,Atuona,PF,77.2,broken clouds,-9.8,-139.0333,Villa Enata
13,Rawson,AR,39.7,light rain,-43.3002,-65.1023,Hosteria Sampedro
14,Kieta,PG,80.02,overcast clouds,-6.2167,155.6333,Uruna Bay Retreat
15,Mataura,NZ,32.49,broken clouds,-46.1927,168.8643,Ellie's Villa
16,Salinopolis,BR,78.3,overcast clouds,-0.6136,-47.3561,Salinas Park Resort Maçarico AP101
17,Ribeira Grande,PT,70.2,scattered clouds,38.5167,-28.7,Quinta da Meia Eira
18,Bealanana,MG,51.44,few clouds,-14.55,48.7333,Le Delta
21,Tuktoyaktuk,CA,50.0,mist,69.4541,-133.0374,End of The Road Ltd.
22,Bluff,NZ,32.81,broken clouds,-46.6,168.3333,Bluff Homestead - Guesthouse & Campervan Park
23,Kapaa,US,82.72,scattered clouds,22.0752,-159.319,Sheraton Kauai Coconut Beach Resort
24,Nong Phai,TH,73.63,overcast clouds,15.9903,101.0618,เอ็ม.เจ รีสอร์ท
25,Butaritari,KI,82.63,few clouds,3.0707,172.7902,Isles Sunset Lodge
26,Victoria,HK,86.18,overcast clouds,22.2855,114.1577,Mini Central
27,San Joaquin,US,95.95,clear sky,37.9333,-121.3011,University Plaza Waterfront Hotel
29,Haifa,IL,78.17,few clouds,32.8156,34.9892,Dan Panorama Haifa Hotel
30,Codrington,AU,49.17,overcast clouds,-38.2667,141.9667,Codrington Gardens Bed And Breakfast
31,Pangnirtung,CA,51.8,few clouds,66.1451,-65.7125,Kilabuk Lodge
32,Panji,ID,74.19,overcast clouds,-7.7253,114.0995,Rumah eni
33,Torbay,CA,66.97,few clouds,47.6666,-52.7314,Gallows Cove
34,Punta Arenas,CL,35.71,scattered clouds,-53.15,-70.9167,Hotel Hain
35,Sitka,US,60.69,overcast clouds,57.0531,-135.33,Westmark Sitka
36,Gornopravdinsk,RU,65.01,clear sky,60.05,69.9,Hostel
37,Hermanus,ZA,50.81,broken clouds,-34.4187,19.2345,Misty Waves Boutique Hotel
38,Yulara,AU,43.2,clear sky,-25.2406,130.9889,Desert Gardens Hotel - Ayers Rock Resort
39,Katsuura,JP,75.43,clear sky,35.1333,140.3,Katsuura Hotel Mikazuki
40,Chuy,UY,65.84,few clouds,-33.6971,-53.4616,Nuevo Hotel Plaza
41,Hilo,US,84.27,moderate rain,19.7297,-155.09,Hilo Hawaiian Hotel
42,Isiro,CD,65.98,scattered clouds,2.7739,27.616,Guest House Hewa Bora
43,Arani,IN,80.8,overcast clouds,12.6667,79.2833,KPK LODGE
45,Flinders,AU,49.37,light rain,-34.5833,150.8552,Shellharbour Resort & Conference Centre
47,Mpongwe,ZM,53.85,clear sky,-13.5091,28.155,Casablanca guest house and bar
48,Yellowknife,CA,68.56,thunderstorm with light rain,62.456,-114.3525,The Explorer Hotel
49,Alice Springs,AU,27.95,clear sky,-23.7,133.8833,Desert Palms Alice Springs
50,Half Moon Bay,US,93.88,few clouds,37.4636,-122.4286,"The Ritz-Carlton, Half Moon Bay"
51,Arraial Do Cabo,BR,73.36,clear sky,-22.9661,-42.0278,Pousada Porto Praia
52,Melfi,IT,61.48,clear sky,40.9965,15.6514,HOTEL TERME DI RAPOLLA
54,Cabedelo,BR,79.47,few clouds,-6.9811,-34.8339,Pousada Camboinha
56,Raudeberg,NO,50.95,overcast clouds,61.9875,5.1352,Nordre Silda.
58,Bitung,ID,77.85,broken clouds,1.4451,125.1824,K2 Lembeh
59,Rapid Valley,US,95.04,clear sky,44.0625,-103.1463,Fairfield Inn & Suites by Marriott Rapid City
60,Aksay,RU,86.22,light rain,47.26,39.87,Chernaya Zhemchuzhina
61,Nouakchott,MR,75.13,clear sky,18.0858,-15.9785,HOTEL IMAN
62,Coihaique,CL,30.15,broken clouds,-45.5752,-72.0662,Diego De Almagro Coyhaique
63,Kushiro,JP,60.6,overcast clouds,42.975,144.3747,Toyoko Inn Kushiro Jujigai
64,Kodiak,US,58.51,overcast clouds,57.79,-152.4072,Best Western Kodiak Inn And Convention Center
66,Faanui,PF,78.53,light rain,-16.4833,-151.75,Bora-Bora Pearl Beach Resort & Spa
67,Luwuk,ID,74.35,overcast clouds,-0.9516,122.7875,Hotel Santika Luwuk
68,Senanga,ZM,59.2,clear sky,-16.1167,23.2667,Zango lodge
69,Banda Aceh,ID,80.67,overcast clouds,5.5577,95.3222,OYO 884 Rumoh PMI Hotel
70,Jamestown,US,82.06,clear sky,42.097,-79.2353,Hampton Inn & Suites Jamestown
71,Glendive,US,84.69,clear sky,47.1053,-104.7125,Super 8 by Wyndham Glendive
72,Thompson,CA,78.96,scattered clouds,55.7435,-97.8558,Burntwood Hotel
73,Sept-Iles,CA,61.32,broken clouds,50.2001,-66.3821,Comfort Inn
74,Labuhan,ID,75.45,few clouds,-6.8844,112.2051,DoubleFAG
75,Esperance,AU,54.59,broken clouds,-33.8667,121.9,Hospitality Esperance
76,Ponta Do Sol,PT,72.23,clear sky,32.6667,-17.1,Hotel do Campo
77,Vawkavysk,BY,51.21,clear sky,53.1561,24.4513,Krasnosiel'skii
78,New Norfolk,AU,49.91,overcast clouds,-42.7826,147.0587,The Shingles Riverside Cottages
79,Praia,CV,77.54,broken clouds,14.9215,-23.5087,LT Aparthotel
80,Tres Arroyos,AR,53.22,overcast clouds,-38.3739,-60.2798,Habitacion Triple con baño y entrada privada
81,Qaanaaq,GL,43.77,overcast clouds,77.484,-69.3632,Qaanaaq Hotel
82,Yibin,CN,81.32,broken clouds,28.7667,104.6238,Handsome Guesthouse
83,Galesong,ID,75.22,overcast clouds,-5.3166,119.3661,Sapriadi Appy
85,Sedro-Woolley,US,74.98,scattered clouds,48.5039,-122.2361,Natural Resources Department
86,Husavik,IS,54.01,overcast clouds,66.0449,-17.3389,Bjarnabúð
87,Ambilobe,MG,64.9,clear sky,-13.2,49.05,Hôtel & Restaurant DIANA Ambilobe
88,Mahebourg,MU,70.25,scattered clouds,-20.4081,57.7,Shandrani Beachcomber Resort & Spa
89,Lompoc,US,75.85,mist,34.6391,-120.4579,"Holiday Inn Express Lompoc, an IHG Hotel"
90,Avarua,CK,75.25,overcast clouds,-21.2078,-159.775,Paradise Inn
92,Montepuez,MZ,60.64,few clouds,-13.1256,38.9997,PembaAparthotel
95,Nikolskoye,RU,60.69,few clouds,59.7035,30.7861,Tourist House - Sablino
96,Manaus,BR,90.1,scattered clouds,-3.1019,-60.025,Manaus Hotéis Millennium
97,Magistralnyy,RU,54.52,scattered clouds,56.1725,107.4458,Магистраль
98,Atambua,ID,69.04,broken clouds,-9.1061,124.8925,Kost Alfa Flat
99,Xiuyan,CN,67.46,broken clouds,40.2928,123.2744,Helin Holiday Hotel
100,Bethel,US,83.34,clear sky,41.3712,-73.414,Courtyard by Marriott Danbury
101,Serra Talhada,BR,75.29,overcast clouds,-7.9919,-38.2983,Pousada São Luiz
104,Kutum,SD,86.95,overcast clouds,14.2,24.6667,Dibbo areaمنطقة دبو
105,Hede,CN,78.78,overcast clouds,33.7681,120.2517,Vienna 3 Best Hotel Sheyang Jiefang Rd
106,Carnarvon,AU,59.41,clear sky,-24.8667,113.6333,Hospitality Carnarvon
107,Barrow,US,60.82,few clouds,71.2906,-156.7887,King Eider Inn
108,Launceston,AU,46.04,overcast clouds,-41.45,147.1667,Hotel Grand Chancellor Launceston
109,Iguape,BR,66.79,scattered clouds,-24.7081,-47.5553,Hotel Pousada Nossa Senhora do Carmo
111,Maxixe,MZ,66.49,clear sky,-23.8597,35.3472,Oceano
113,Yining,CN,79.09,broken clouds,29.0361,114.5636,Xiushui Hotel
115,Lebu,CL,49.66,clear sky,-37.6167,-73.65,Hostal Las Lilas
116,Sur,OM,83.1,overcast clouds,22.5667,59.5289,Sur Plaza Hotel
118,Ilinskiy,RU,64.78,clear sky,55.619,38.1182,Around the world
119,Balkanabat,TM,88.65,clear sky,39.5108,54.3671,Nebitchi Hotel
120,Port Alfred,ZA,59.2,light rain,-33.5906,26.891,The Halyards Hotel
121,Salalah,OM,77.02,light rain,17.0151,54.0924,"HAMDAN PLAZA HOTEL SALALAH, an HTG Hotel"
122,Sargatskoye,RU,67.32,broken clouds,55.6101,73.4972,Kvartira Posutochno V Sargatke
123,Kisangani,CD,73.67,broken clouds,0.5167,25.2,Grand Ramela Hotel
124,Amahai,ID,76.75,overcast clouds,-3.3333,128.9167,HOTEL ISABELA
126,Mount Isa,AU,42.57,clear sky,-20.7333,139.5,ibis Styles Mt Isa Verona
127,Puerto Del Rosario,ES,87.55,few clouds,28.5004,-13.8627,Hotel JM Puerto del Rosario
128,Williams Lake,CA,71.06,overcast clouds,52.1415,-122.1445,Stampeder Motel
129,Sirjan,IR,83.37,overcast clouds,29.452,55.6814,MAPNA Building
130,Arcata,US,73.2,mist,40.8665,-124.0828,"Hampton Inn & Suites Arcata, CA"
131,Margate,GB,67.69,broken clouds,51.3813,1.3862,Premier Inn Margate hotel
133,Tautira,PF,77.68,light rain,-17.7333,-149.15,Pension Oaoa
134,Fortuna,US,72.93,clear sky,40.5982,-124.1573,Super 8 by Wyndham Fortuna
135,Vaini,TO,75.36,scattered clouds,-21.2,-175.2,Keleti Beach Resort
136,Portland,US,80.15,broken clouds,45.5234,-122.6762,Embassy Suites by Hilton Portland Downtown
137,Namatanai,PG,79.43,scattered clouds,-3.6667,152.4333,Seagulls Inn Namatani
138,Tasiilaq,GL,40.06,scattered clouds,65.6145,-37.6368,The Red House
139,Sumbe,AO,68.0,clear sky,-11.2061,13.8437,Hotel Ritz Sumbe
140,Talnakh,RU,47.21,scattered clouds,69.4865,88.3972,Talnakh Hotel
142,Pevek,RU,32.85,overcast clouds,69.7008,170.3133,Severnoye Zoloto
143,Hovd,MN,57.54,moderate rain,48.0056,91.6419,Hotel Khovd
144,Rafaela,AR,64.0,clear sky,-31.2503,-61.4867,Parra Hotel & Suites
145,Coquimbo,CL,58.73,broken clouds,-29.9533,-71.3436,Hotel San Juan
146,Dudinka,RU,47.62,scattered clouds,69.4058,86.1778,Hotel Viktoria
147,Hirara,JP,84.61,clear sky,24.8,125.2833,Hotel Atoll Emerald Miyakojima
148,Kloulklubed,PW,83.68,broken clouds,7.0419,134.2556,Storyboard Beach Resort
149,Hami,CN,81.54,overcast clouds,42.8,93.45,Laoyutang Resort
150,Sumenep,ID,78.3,scattered clouds,-7.0167,113.8667,OYO 3271 Homestay Pandian
152,Dvinskoy,RU,61.72,light rain,62.1535,45.1175,Gostinitsa Dvinskaya
153,Bosaso,SO,89.2,light rain,11.2842,49.1816,Red Sea Hotel
154,Geraldton,AU,46.81,few clouds,-28.7667,114.6,Broadwater Mariner Resort
155,Kaitangata,NZ,38.71,broken clouds,-46.2817,169.8464,Kaitangata Motor Camp
156,Cabo San Lucas,MX,97.61,few clouds,22.8909,-109.9124,Hotel Tesoro Los Cabos
157,Clyde River,CA,48.43,overcast clouds,70.4692,-68.5914,Qamaq Hotel
158,San Cristobal,VE,80.78,overcast clouds,7.7669,-72.225,Pirineos
159,Hambantota,LK,80.26,moderate rain,6.1241,81.1185,Bungalow 63
160,Okha,RU,67.24,overcast clouds,53.5739,142.9478,Sakhalin-Sfera
161,Quelimane,MZ,67.95,clear sky,-17.8786,36.8883,Hotel Flamingo
162,Kavaratti,IN,81.27,overcast clouds,10.5669,72.642,Hotels in Lakshadweep Islands
163,Jiayuguan,CN,70.05,scattered clouds,39.8167,98.3,Jiugang Hotel - Jiayuguan
164,Anadyr,RU,48.7,broken clouds,64.75,177.4833,Отке17.ру — жильё для командированных
165,Chabahar,IR,84.2,light rain,25.2919,60.643,هتل گدروشیا
166,Kensington,AU,51.13,light rain,-33.9167,151.2167,Meriton Suites Zetland
167,Cayenne,GF,83.08,scattered clouds,4.9333,-52.3333,Hôtel Le Dronmi
169,Korla,CN,76.82,scattered clouds,41.7597,86.1469,Gulisitan Hotel
170,Hithadhoo,MV,82.36,overcast clouds,-0.6,73.0833,Scoop Guest House
171,Phan Thiet,VN,76.82,light rain,10.9333,108.1,Hotel Saigon-PT
172,Pierre,US,92.86,clear sky,44.3683,-100.351,Ramkota Hotel
173,Palu,ID,77.04,overcast clouds,-0.8917,119.8707,Hotel Santika Palu
174,Vadodara,IN,78.67,moderate rain,22.3,73.2,Grand Mercure Vadodara Surya Palace
175,Bredasdorp,ZA,49.5,broken clouds,-34.5322,20.0403,Bredasdorp Country Manor
176,Castro,BR,59.63,clear sky,-24.7911,-50.0119,CHACARA BAILLY
177,Juneau,US,57.22,light rain,58.3019,-134.4197,"Baranof Downtown, BW Signature Collection"
179,Fairbanks,US,67.96,smoke,64.8378,-147.7164,Westmark Fairbanks Hotel & Conference Center
180,La Ronge,CA,77.25,broken clouds,55.1001,-105.2842,Northland Motor Hotel
181,Along,IN,74.35,overcast clouds,28.1667,94.7667,Hotel West
182,Vereshchagino,RU,64.15,overcast clouds,58.0789,54.6557,Scarlet Sails
183,Viedma,AR,49.28,broken clouds,-40.8135,-62.9967,Hotel Cristal
184,Lufilufi,WS,78.58,light rain,-13.8745,-171.5986,Leuaina Beach Resort and Spa
185,Karratha,AU,63.93,clear sky,-20.7377,116.8463,ibis Styles Karratha
186,Mogadishu,SO,75.56,light rain,2.0371,45.3438,Hotel Juba
187,Isangel,VU,78.35,few clouds,-19.55,169.2667,Tanna Lodge
188,Solnechnyy,RU,68.23,scattered clouds,50.7214,136.6319,Hotel complex Pastoral
189,Kalabo,ZM,59.47,clear sky,-14.97,22.6814,Sikakubete Guest House Kalabo Town Council
190,Te Anau,NZ,30.15,overcast clouds,-45.4167,167.7167,Kingsgate Hotel Te Anau
191,Ciudad Bolivar,VE,85.55,overcast clouds,8.1222,-63.5497,Hotel Edi
192,Leningradskiy,RU,37.89,overcast clouds,69.3833,178.4167,Gostinitsa
193,Nago,JP,83.25,clear sky,26.5881,127.9761,Hotel Yugaf Inn Okinawa
194,Natal,BR,80.82,scattered clouds,-5.795,-35.2094,Villa Park Hotel | Natal
195,Saint-Philippe,RE,64.22,scattered clouds,-21.3585,55.7679,"Chambres d'hôte ""La Trinité"""
196,Xinzhou,CN,63.72,broken clouds,38.4092,112.7333,Shell Hotel - Xinzhou
197,Marsh Harbour,BS,84.33,moderate rain,26.5412,-77.0636,Abaco Beach Resort
198,Ballarat,AU,40.12,overcast clouds,-37.5662,143.8496,Quest Ballarat
201,Beitbridge,ZW,66.61,clear sky,-22.2167,30.0,Beitbridge Express Hotel
202,Kavos,GR,77.97,clear sky,38.8268,22.8322,Kavos Villa
203,Hervey Bay,AU,54.82,clear sky,-25.2986,152.8535,Shelly Bay Resort
204,Hammerum,DK,54.43,broken clouds,56.1336,9.0612,Østergaards Hotel
205,Saint-Pierre,RE,70.92,clear sky,-21.3393,55.4781,Alize Plage
206,Port Hardy,CA,64.58,broken clouds,50.6996,-127.4199,Airport Inn-Port Hardy
207,Kosh-Agach,RU,44.4,clear sky,50.0,88.6667,Fermerskiy Dom v Kosh-Agache
208,Baracoa,CU,84.78,overcast clouds,20.3467,-74.4958,Hostal Rio Miel
209,Trairi,BR,77.72,clear sky,-3.2778,-39.2689,janelas do mar
211,Upernavik,GL,38.91,broken clouds,72.7868,-56.1549,Café de Upernavik
212,Likasi,CD,58.05,clear sky,-10.9814,26.7333,TABERNACLE DE LIKASI
213,Minab,IR,89.92,overcast clouds,27.1467,57.0801,Bam campground
214,San Juan,AR,59.22,clear sky,-31.5375,-68.5364,Hotel Provincial
216,Corinth,GR,78.42,clear sky,37.9407,22.9573,Ephira Hotel
217,The Valley,AI,86.14,few clouds,18.217,-63.0578,CeBlue Villas & Beach Resort
218,Cherskiy,RU,54.59,overcast clouds,68.75,161.3,Gostinitsa
219,Saldanha,ZA,51.85,scattered clouds,-33.0117,17.9442,Blue Bay Lodge
220,Kadhan,PK,82.67,overcast clouds,24.481,68.9859,ڳوٺ چوڌري جلال الدين جٽ
221,Lishu,CN,64.51,overcast clouds,43.3047,124.3278,Su Camp Business Hotel
223,Khatanga,RU,45.66,broken clouds,71.9667,102.5,"""Khatanga"""
224,Maragogi,BR,75.13,clear sky,-9.0122,-35.2225,Salinas do Maragogi All Inclusive Resort
225,Hamilton,US,88.5,scattered clouds,39.1834,-84.5333,Six Acres Bed & Breakfast
226,Nellikkuppam,IN,83.7,overcast clouds,11.7667,79.6833,கௌரி இல்லம்
228,Nurota,UZ,73.74,clear sky,40.5614,65.6886,Guest House Ruslan Nurata & Tours
229,Kawalu,ID,69.82,overcast clouds,-7.3817,108.2082,West Jontor
230,Bourail,NC,75.58,moderate rain,-21.5667,165.4833,Motel Allamanda
231,Hasaki,JP,75.6,clear sky,35.7333,140.8333,Inubosaki Kanko Hotel
232,Ivancsa,HU,62.96,clear sky,47.1567,18.8203,Pompos Pizzéria
233,Touros,BR,76.51,few clouds,-5.1989,-35.4608,INN NEW HORIZON
234,Wilmington,US,76.95,moderate rain,34.2257,-77.9447,"Hotel Ballast Wilmington, Tapestry Collection by Hilton"
235,Coahuayana,MX,90.93,broken clouds,18.7333,-103.6833,El rranchito michuacan de ocampos
236,Jumla,NP,62.08,overcast clouds,29.2747,82.1838,Royal Garden Hotel
237,Igarka,RU,46.04,overcast clouds,67.4667,86.5833,"Zapolyar'ye, Gostinitsa"
239,Karoi,ZW,54.05,clear sky,-16.8099,29.6925,Chikangwe Guest houses
240,West Wendover,US,90.61,clear sky,40.7391,-114.0733,"Motel 6 Wendover, UT"
242,Thanesar,IN,85.68,broken clouds,29.9833,76.8167,Hotel M.G Grand
243,Batagay,RU,59.49,overcast clouds,67.6333,134.6333,Gostinitsa Ki'ileekh
244,Chongwe,ZM,54.64,clear sky,-15.3292,28.682,Grakas Lodge
245,Newburyport,US,85.37,few clouds,42.8126,-70.8773,Fairfield Inn by Marriott Amesbury
246,Kavieng,PG,81.48,light rain,-2.5744,150.7967,Nusa Island Retreat
247,Bilibino,RU,46.4,scattered clouds,68.0546,166.4372,Gostinitsa Severyanka
248,Adiake,CI,74.62,broken clouds,5.2863,-3.304,HOTEL COEUR D'OR
249,Caravelas,BR,70.88,clear sky,-17.7125,-39.2481,Pousada dos Navegantes
253,Beira,MZ,66.29,clear sky,-19.8436,34.8389,Beira Terrace Hotel
254,Bloomfield,US,87.21,clear sky,40.8068,-74.1854,Troy Carroll
255,Sterling,US,84.94,broken clouds,39.0062,-77.4286,Hampton Inn & Suites Washington-Dulles International Airport
256,Moose Factory,CA,66.2,overcast clouds,51.2585,-80.6094,Cree Village Eco Lodge
258,Belmonte,BR,72.79,clear sky,-15.8631,-38.8828,Pousada Monte Carmelo O Pão
259,Rio Gallegos,AR,28.45,clear sky,-51.6226,-69.2181,Hotel Santa Cruz
260,El Dorado,US,92.61,clear sky,38.7666,-120.5177,South Fork Group Campground
261,Meulaboh,ID,76.57,moderate rain,4.1363,96.1285,Kost Pria
262,Cidreira,BR,63.97,overcast clouds,-30.1811,-50.2056,Hotel Castelo
263,Phek,IN,59.68,overcast clouds,25.6667,94.5,Prayer Centre
264,Marakkanam,IN,84.87,overcast clouds,12.2,79.95,Samvasa by the Sea
265,Sayaxche,GT,91.74,overcast clouds,16.5167,-90.1667,Hotel y Auto Hotel Arizona
266,Careiro Da Varzea,BR,90.23,overcast clouds,-3.2003,-59.8119,POUSADA DA ALDENORA
267,Jibuti,DJ,82.24,overcast clouds,11.5,42.5,Orchid Main Camp Goubet
268,Smithers,CA,59.32,light rain,54.7804,-127.1743,"Prestige Hudson Bay Lodge, Premier Collection"
269,Port Elizabeth,ZA,55.69,clear sky,-33.918,25.5701,39 On Nile Guest House
270,Buala,SB,80.56,overcast clouds,-8.145,159.5921,Maringe Lagoon Lodge
271,Palmer,US,83.62,few clouds,42.1584,-72.3287,Wedgewood Motel
272,Sechura,PE,73.2,broken clouds,-5.5569,-80.8222,Hospedaje Costa Bella
273,San Vicente,AR,70.92,overcast clouds,-26.6167,-54.1333,Complejo Turístico Farelluk
274,Moranbah,AU,43.12,clear sky,-22.0016,148.0466,Property Vine - Monterey Moranbah
275,Ancud,CL,46.22,light rain,-41.8697,-73.8203,Hotel Arena Gruesa
276,Itaituba,BR,91.56,few clouds,-4.2761,-55.9836,Hotel Campos
277,Mbandaka,CD,75.04,broken clouds,0.0487,18.2603,Guest House Epervier
278,Petropavlovka,RU,55.9,heavy intensity rain,50.6114,105.3196,Tuyaa
279,Bandarbeyla,SO,75.65,broken clouds,9.4942,50.8122,JABIR HOTEL
280,Hue,VN,77.11,broken clouds,16.4667,107.6,Saigon Morin Hotel
281,Souillac,MU,70.18,scattered clouds,-20.5167,57.5167,Shanti Maurice Resort & Spa
282,Esfarayen,IR,65.86,clear sky,37.0765,57.5101,دفتر ازدواج 65 : سردفتر ابراهیم برغمدی
283,Brookings,US,93.2,clear sky,44.3114,-96.7984,"Holiday Inn Express & Suites Brookings, an IHG Hotel"
284,Hofn,IS,50.25,overcast clouds,64.2539,-15.2082,Hótel Höfn
285,Shubarkuduk,KZ,73.98,few clouds,49.1447,56.4872,Sirius
286,Padang,ID,76.37,overcast clouds,-0.9492,100.3543,Mercure Padang
287,Nishihara,JP,82.45,few clouds,26.1842,127.7558,Minshuku Agaihama
288,Yar-Sale,RU,48.54,few clouds,66.8333,70.8333,Yalemd
289,Guerrero Negro,MX,77.61,few clouds,27.9769,-114.0611,"Casa Laguna, Bed & Breakfast"
290,Havre-Saint-Pierre,CA,57.56,overcast clouds,50.2334,-63.5986,Auberge Niapiskau
291,Nanortalik,GL,43.43,broken clouds,60.1432,-45.2371,Hotel Kap Farvel
292,Sao Joao Da Barra,BR,75.29,scattered clouds,-21.6403,-41.0511,Pousada Porto De Canoas
293,Longyearbyen,SJ,43.41,overcast clouds,78.2186,15.6401,"Radisson Blu Polar Hotel, Spitsbergen"
294,Norman Wells,CA,77.04,smoke,65.282,-126.8329,Heritage Hotel
295,Sinjar,IQ,85.01,clear sky,36.3209,41.8754,زوماني فون 1
296,Moerai,PF,73.51,overcast clouds,-22.4333,-151.3333,Le Manotel
297,San Policarpo,PH,78.39,heavy intensity rain,12.1791,125.5072,Agapita M. Nicart
298,Alabaster,US,89.64,haze,33.2443,-86.8164,"Candlewood Suites Alabaster, an IHG Hotel"
299,Shache,CN,78.71,overcast clouds,38.4167,77.2406,Delong Hotel
300,Dwarka,IN,82.44,moderate rain,22.2394,68.9678,Hotel Narayan Avezika Comfort
301,Haines Junction,CA,64.35,overcast clouds,60.7522,-137.5108,Parkside Inn
303,Lorengau,PG,81.91,broken clouds,-2.0226,147.2712,Lorengau Harbourside Hotel
306,Bengkulu,ID,74.1,overcast clouds,-3.8004,102.2655,Grage Hotel Bengkulu
307,Pizarro,CO,79.59,overcast clouds,4.9533,-77.366,Hotel Limonar
308,Barcelos,PT,70.92,clear sky,41.5388,-8.6151,Hotel Restaurante Bagoeira
309,Dong Hoi,VN,78.04,overcast clouds,17.4833,106.6,Nam Long Hotel
310,Greensburg,US,87.26,clear sky,40.3015,-79.5389,Courtyard by Marriott Pittsburgh Greensburg
311,Prince Rupert,CA,55.49,light rain,54.3161,-130.3201,Crest Hotel
312,Bubaque,GW,81.16,broken clouds,11.2833,-15.8333,"Casa Dora, Bubaque"
313,Port Macquarie,AU,55.33,broken clouds,-31.4333,152.9167,Rydges Port Macquarie
314,Show Low,US,86.65,clear sky,34.2542,-110.0298,Hampton Inn & Suites Show Low-Pinetop
315,Byron Bay,AU,51.71,broken clouds,-28.65,153.6167,Backpackers Inn
316,Westerly,US,82.74,clear sky,41.3776,-71.8273,La Quinta Inn & Suites by Wyndham Stonington-Mystic Area
317,Oktyabrskoye,RU,71.74,overcast clouds,43.0645,44.7417,Prolesok Mini-hotel
318,Tuatapere,NZ,33.57,broken clouds,-46.1333,167.6833,Ron and Tony's Bed & Breakfast
319,Bouna,CI,75.09,light rain,9.2667,-3.0,Hôtel lababa
320,Kahama,TZ,66.61,clear sky,-3.8333,32.6,Kahama Gold Hotel
321,Churapcha,RU,69.03,light rain,62.0025,132.4325,"""Tusku"""
322,Rock Springs,US,91.24,clear sky,41.5875,-109.2029,Homewood Suites by Hilton Rock Springs
323,Hachinohe,JP,68.76,broken clouds,40.5,141.5,Hachinohe Grand Hotel
324,Pingliang,CN,71.06,overcast clouds,35.5392,106.6861,North Gate Hostel
325,Gorontalo,ID,75.0,overcast clouds,0.5412,123.0595,Maqna Hotel by Prasanthi
326,Pauini,BR,77.38,overcast clouds,-7.7136,-66.9764,Casa do Kiwliks
327,Port Moresby,PG,76.42,scattered clouds,-9.4431,147.1797,Lamana Hotel (Port Moresby)
328,Vestmannaeyjar,IS,51.42,overcast clouds,63.4427,-20.2734,Glamping & Camping
329,Corning,US,82.11,clear sky,42.1428,-77.0547,Fairfield Inn by Marriott Corning Riverside
330,Soe,ID,62.71,overcast clouds,-9.8607,124.284,Dena Hotel
331,Kruisfontein,ZA,51.12,broken clouds,-34.0033,24.7314,Oyster Bay House Rental
333,Matagami,CA,73.51,broken clouds,49.7502,-77.6328,Motel Le Caribou
334,Gigante,CO,79.47,scattered clouds,2.3868,-75.5453,Bosques De Luna
335,Sisimiut,GL,42.12,overcast clouds,66.9395,-53.6735,Hotel Sisimiut
337,Kahului,US,84.22,few clouds,20.8947,-156.47,Maui Seaside Hotel
338,Tabou,CI,75.42,scattered clouds,4.423,-7.3528,hotêl doufoulougou
339,Kernersville,US,67.17,light rain,36.1199,-80.0736,"Holiday Inn Express Kernersville, an IHG Hotel"
340,Port-Cartier,CA,61.02,overcast clouds,50.0334,-66.8654,Le Q'Artier
341,Umm Lajj,SA,85.12,overcast clouds,25.0213,37.2685,Moon light Furnished Units
342,Karwar,IN,77.94,light rain,14.8,74.1333,Netalco Connects
343,Laguna,US,99.09,clear sky,38.421,-121.4238,"Holiday Inn Express & Suites Elk Grove Central - Hwy 99, an IHG Hotel"
344,Constitucion,CL,51.78,scattered clouds,-35.3333,-72.4167,Hotel Boutique Las Azucenas
345,Westport,US,84.61,clear sky,41.1415,-73.3579,The Westport Inn
346,Denia,ES,82.74,clear sky,38.8408,0.1057,Hotel Port Dénia
347,Ucluelet,CA,61.11,overcast clouds,48.9329,-125.5528,Black Rock Oceanfront Resort
348,Batie,BF,77.58,overcast clouds,9.8833,-2.9167,Auberge SONDAR AFACI
350,Suifenhe,CN,59.67,light rain,44.4,131.1667,Holiday Inn Suifenhe
351,Noumea,NC,75.99,broken clouds,-22.2763,166.4572,Hôtel Le Lagon
353,Samarai,PG,80.96,scattered clouds,-10.6167,150.6667,Nuli Sapi
354,Sinnamary,GF,78.84,scattered clouds,5.3833,-52.95,ALETHEIA Appartement Sinnamary
355,Makurdi,NG,75.04,light rain,7.7411,8.5121,Doo Palace Hotel
356,Jiuquan,CN,68.97,few clouds,39.7432,98.5174,Jiuquan Hotel
357,Makakilo City,US,84.52,few clouds,21.3469,-158.0858,Marriott's Ko Olina Beach Club
358,Santa Catarina De Tepehuanes,MX,83.21,broken clouds,25.35,-105.7333,hotel plaza
359,Malabo,GQ,76.03,overcast clouds,3.75,8.7833,Magno Suites Exclusive Hotel & Restaurant
360,Saint Anthony,US,84.52,broken clouds,45.0205,-93.218,"Holiday Inn Express Roseville-St. Paul, an IHG Hotel"
361,Acapulco,MX,86.61,few clouds,16.8634,-99.8901,HS Hotsson Smart Acapulco
362,Cockburn Town,TC,85.96,scattered clouds,21.4612,-71.1419,Osprey Beach Hotel
363,Ahmadpur Sial,PK,92.17,scattered clouds,30.6754,71.7483,Madina Gulshan Hotel
364,Porto Santo,PT,68.38,broken clouds,33.072,-16.3415,Hotel Porto Santo & Spa
366,Soyo,AO,71.01,few clouds,-6.1349,12.3689,Hospedaria ndozi'ame
367,Sakakah,SA,89.17,clear sky,29.9697,40.2064,Fakhamat Al Orjoana Apartment
368,Holland,US,84.54,clear sky,42.7875,-86.1089,Hampton Inn Holland
369,Smirnykh,RU,59.65,overcast clouds,49.75,142.8333,Tsentral'naya
370,Paris,FR,75.07,clear sky,48.8534,2.3488,Britannique Hotel - Paris Centre
371,Takoradi,GH,75.34,broken clouds,4.8845,-1.7554,Raybow International Hotel
372,Leh,IN,64.96,few clouds,34.1667,77.5833,Hotel Ladakh Greens
373,Kindu,CD,73.85,scattered clouds,-2.95,25.95,Résidence Okanda
376,Mayo,US,85.08,scattered clouds,38.8876,-76.5119,Resorts Resource Group International
377,Saint-Francois,FR,67.44,clear sky,46.4154,3.9054,Manoir Du Bonheur
379,Monrovia,LR,77.09,overcast clouds,6.3005,-10.7969,Sunset Inn
381,Zhigansk,RU,58.19,scattered clouds,66.7697,123.3711,Gostinichnyy Kompleks Aylgy
382,Pergamino,AR,64.18,broken clouds,-33.89,-60.5736,Hotel Fachinat
383,Ust-Nera,RU,73.63,overcast clouds,64.5667,143.2,Hotel Ust-Nera
384,Naze,JP,79.72,clear sky,28.3667,129.4833,Shishime Hotel
386,Chumikan,RU,51.78,overcast clouds,54.7183,135.315,Fortuna
387,Mecca,SA,89.22,broken clouds,21.4267,39.8261,"Makkah Clock Royal Tower, A Fairmont Hotel"
388,Vestmanna,FO,50.92,drizzle,62.1564,-7.1664,Vestmanna Camping
390,Parry Sound,CA,75.25,broken clouds,45.3501,-80.033,Bayside Inn
391,Komsomolskiy,UZ,77.72,scattered clouds,40.4272,71.7189,Ikathouse
393,Nemuro,JP,59.99,overcast clouds,43.3236,145.575,Hotel Nemuro Kaiyoutei
394,Carutapera,BR,75.47,broken clouds,-1.195,-46.02,Lidera
395,Pisco,PE,66.25,clear sky,-13.7,-76.2167,Hotel San Isidro Oficial
396,Houma,US,84.0,heavy intensity rain,29.5958,-90.7195,Courtyard by Marriott Houma
397,Grand Gaube,MU,70.38,overcast clouds,-20.0064,57.6608,Veranda Paul et Virginie Hotel & Spa
398,Kasongo,CD,74.01,clear sky,-4.45,26.6667,Guest Hôtel
399,Hinton,CA,71.64,broken clouds,53.4001,-117.5857,Econo Lodge & Suites
402,Pelym,RU,64.58,scattered clouds,61.0108,61.9978,Obshchezhitiye Pelymskogo Lpumg
403,Ulaangom,MN,61.05,scattered clouds,49.9811,92.0667,Achit Nuur Hotel & Restaurant
404,Sioux Lookout,CA,77.07,broken clouds,50.1001,-91.917,Knobby's Fly-In Camps
405,Kuching,MY,77.22,few clouds,1.55,110.3333,Hilton Kuching
407,Cururupu,BR,76.89,broken clouds,-1.8283,-44.8683,POUSADA TRAVÉS'CIA
408,Broome,US,81.18,clear sky,42.2506,-75.833,Chenango Valley State Park
409,Petropavlovsk-Kamchatskiy,RU,72.19,scattered clouds,53.0452,158.6483,The Hotel Petropavlovsky
410,Pokhara,NP,71.67,overcast clouds,28.2333,83.9833,OYO 170 Hotel View Point
411,Vila Franca Do Campo,PT,70.2,scattered clouds,37.7167,-25.4333,Pestana Bahia Praia
413,Liverpool,GB,66.15,clear sky,53.4106,-2.9779,Premier Inn Liverpool City Centre (Moorfields) hotel
414,Atasu,KZ,61.68,broken clouds,48.6814,71.6433,Dostyk
415,Roma,US,80.73,clear sky,43.2128,-75.4557,Wingate By Wyndham Rome
416,Mehamn,NO,53.55,clear sky,71.0357,27.8492,Mehamn Arctic Hotel AS
417,Xining,CN,62.62,overcast clouds,36.6167,101.7667,Super Leisure Hotel
422,Qinhuangdao,CN,68.83,clear sky,39.9317,119.5883,Qinhuangdao Peninsula Seasons Hotel And Apartment
423,Copiapo,CL,56.89,clear sky,-27.3667,-70.3333,Antay Casino Hotel
424,Dingle,PH,76.15,overcast clouds,10.9995,122.6711,SEGAYA PROPERTY
425,Arcachon,FR,80.65,clear sky,44.5875,-1.0519,Hôtel All Suites Le Teich
426,Tutzing,DE,58.78,broken clouds,47.9094,11.2803,Marina Hotel am Starnberger See
427,Kununurra,AU,48.18,clear sky,-15.7667,128.7333,Hotel Kununurra
428,Riohacha,CO,87.91,few clouds,11.5444,-72.9072,Hotel Taroa
429,Artyom,AZ,69.94,clear sky,40.4723,50.333,Pir hos
430,Saint-Georges,GD,83.88,few clouds,12.0564,-61.7485,Radisson Grenada Beach Resort
431,Dolores,AR,57.31,light rain,-36.3132,-57.6792,Apart Hotel - Arianos
432,Miandrivazo,MG,66.36,clear sky,-19.5167,45.4667,Hôtel Arc En Ciel Miandrivazo
433,Tiarei,PF,80.62,light rain,-17.5333,-149.3333,Le Rocher de Tahiti
434,San Rafael Del Sur,NI,85.05,overcast clouds,11.8485,-86.4384,Hospedaje El Chino
435,Pimentel,PE,68.29,broken clouds,-6.8367,-79.9342,Hotel Puerto del Sol
436,Burgas,BG,71.71,overcast clouds,42.5061,27.4678,Хотел „Опера“
437,Cap-Aux-Meules,CA,66.25,clear sky,47.3821,-61.8597,Auberge Madeli
438,Sioux City,US,90.99,clear sky,42.5,-96.4003,Hilton Garden Inn Sioux City Riverfront
439,Santa Rosa,PH,83.01,scattered clouds,14.3122,121.1114,Erlyn’s Sta Rosa City Home
440,Calama,CL,66.69,clear sky,-22.4667,-68.9333,Park Hotel Calama
441,Murray Bridge,AU,56.12,overcast clouds,-35.1167,139.2667,Balcony On Sixth Lodge
442,Lagoa,PT,67.77,few clouds,39.05,-27.9833,Casa Das Faias
443,Varadero,CU,84.43,scattered clouds,23.1536,-81.2514,Hotel Tuxpan Varadero
444,Klaksvik,FO,52.72,overcast clouds,62.2266,-6.589,Airbnb rooms
445,Altay,CN,58.89,few clouds,47.8667,88.1167,Jinqiao Hotel
446,Fredericksburg,US,82.02,clear sky,38.3032,-77.4605,Courtyard by Marriott Fredericksburg Historic District
447,Nenjiang,CN,60.93,overcast clouds,49.1833,125.2167,Nenjiang Apartment
449,Port Shepstone,ZA,63.75,clear sky,-30.7414,30.455,My Den Beachfront Bed and Breakfast | Self-Catering
450,Nome,US,69.12,clear sky,64.5011,-165.4064,Dredge 7 Inn
451,Ust-Ishim,RU,65.5,overcast clouds,57.6935,71.1665,"Velichko T.p., Gostinitsa"
452,Charcas,MX,81.34,broken clouds,23.1333,-101.1167,Hotel El Malacate
453,Horadiz,AZ,77.54,clear sky,39.4488,47.3353,Horadiz Olympic Center
454,Calatayud,ES,80.49,clear sky,41.3535,-1.6432,Globales Castillo de Ayud
455,Vao,NC,76.24,scattered clouds,-22.6667,167.4833,Hotel Kou-Bugny
456,Akmene,LT,52.88,broken clouds,56.25,22.75,Sodyba
458,Kirensk,RU,58.44,overcast clouds,57.7853,108.1119,Kirenskiy Plos
459,Anqing,CN,83.16,overcast clouds,30.5092,117.0506,Hongtian Hotel
460,Bakel,SN,94.86,broken clouds,14.905,-12.4568,Ablaye Diallo Bakel
461,Esso,RU,75.67,clear sky,55.9333,158.7,Paramushir Tur
462,Knysna,ZA,56.64,light rain,-34.0363,23.0471,Protea Hotel by Marriott Knysna Quays
463,Ponta Delgada,PT,70.5,broken clouds,37.7333,-25.6667,Vila Nova Hotel
464,Seddon,AU,48.87,clear sky,-37.8068,144.8916,Footscray Motor Inn
465,Tondano,ID,69.89,broken clouds,1.3038,124.9112,Villa Bella
467,Burgeo,CA,59.77,few clouds,47.6167,-57.6152,Gillett's Motel
468,Mujiayingzi,CN,66.92,clear sky,42.1167,118.7833,Jinjiang Hotel
470,Auki,SB,79.07,broken clouds,-8.7676,160.7034,Auki Motel
471,Ixtapa,MX,89.22,few clouds,20.7,-105.2,hotel la terminal
473,Oranjestad,AW,85.95,scattered clouds,12.524,-70.027,Divi Village Golf & Beach Resort
474,Tsabong,BW,51.66,clear sky,-26.0217,22.401,Springbok Motel
475,Tura,IN,74.8,broken clouds,25.5198,90.2201,Hotel RIKMAN Continental
477,Cape Canaveral,US,90.07,thunderstorm,28.4058,-80.6048,Residence Inn by Marriott Cape Canaveral Cocoa Beach
478,Ariquemes,BR,90.84,few clouds,-9.9133,-63.0408,Hotel Sol Nascente - Ariquemes - RO
479,Port Blair,IN,81.54,heavy intensity rain,11.6667,92.75,"Welcomhotel By ITC Hotels, Bay Island, Port Blair"
480,Victoria Point,AU,53.35,scattered clouds,-27.5833,153.3,Bay Retreat Motel
481,Amarante,BR,84.07,scattered clouds,-6.2411,-42.8547,Hotel Pousada Velho Monge
482,Sola,VU,81.52,few clouds,-13.8833,167.55,Leumerus Bungalows
484,Caohai,CN,57.7,clear sky,26.8661,104.2841,Jinhua Hotel
485,Quibdo,CO,86.34,broken clouds,5.6947,-76.6611,Domus Goval Hotel Quibdó
486,Markova,UA,51.44,broken clouds,48.6758,24.4138,Vas.VOM
487,Mokolo,CM,73.78,overcast clouds,10.7398,13.8019,Diwa Hôtel
488,Sao Filipe,CV,73.98,few clouds,14.8961,-24.4956,Hotel Xaguate
489,Changtu,CN,64.15,scattered clouds,42.7788,124.0955,Ming Yang Inn
490,Severo-Kurilsk,RU,60.91,overcast clouds,50.6789,156.125,Kak Doma
491,Paragominas,BR,78.49,clear sky,-2.9667,-47.4833,INOVA
492,Shimoda,JP,75.11,clear sky,34.6667,138.95,Shimoda Tokyu Hotel
493,Nyurba,RU,57.78,scattered clouds,63.2842,118.3319,"Гостиница ""Comfort"""
494,Seoul,KR,76.44,clear sky,37.5683,126.9778,Lotte Hotel Seoul
495,Kaeo,NZ,58.32,light rain,-35.1,173.7833,Bushido Lodge
496,Tabas,IR,89.71,clear sky,33.5959,56.9244,شرکت معماری مهراز شایگان آراد
497,Saint-Joseph,RE,63.21,few clouds,-21.3667,55.6167,"""Plantation Bed and Breakfast"
499,Izobilnyy,RU,79.92,broken clouds,45.3741,41.7121,Verano Novo B&B
500,Faya,SA,69.91,broken clouds,18.3851,42.4509,املاك خالد الشعشوع
501,Bikaner,IN,83.43,overcast clouds,28.0167,73.3,The Laxmi Niwas Palace
502,Severodvinsk,RU,62.71,broken clouds,64.5635,39.8302,Park Hotel
503,Cremona,IT,79.61,clear sky,45.2333,9.9333,Pensione S.Giorgio
504,Vardo,NO,49.98,light intensity drizzle,70.3705,31.1107,Vardø Hotel AS
505,Eirunepe,BR,80.2,overcast clouds,-6.6603,-69.8736,Hotel novo Acre & Comercial Aguiar
506,Deputatskiy,RU,58.33,overcast clouds,69.3,139.9,Baza Otdykha
507,Sistranda,NO,49.96,overcast clouds,63.7256,8.834,Hotell Frøya
508,Billings,US,87.67,scattered clouds,45.7833,-108.5007,Best Western Plus Clocktower Inn
509,Zyryanovsk,KZ,56.41,scattered clouds,49.7386,84.2719,Гостиница «ЭВЕРЕСТ»
511,Lasa,IT,65.28,clear sky,46.6166,10.7002,Pension Feldgärtenhof
512,Zaysan,KZ,63.05,clear sky,47.4667,84.8667,Ерлан үй
513,Semey,KZ,68.09,broken clouds,50.4111,80.2275,Grand Hotel Semey
514,Takaka,NZ,51.57,moderate rain,-40.85,172.8,Golden Bay Motels
515,Yeppoon,AU,47.98,clear sky,-23.1333,150.7333,Villa Mar Colina
516,Lar,IN,90.03,scattered clouds,26.2039,83.9717,Ovaiskarni ward Lar
517,Zhanakorgan,KZ,76.44,clear sky,43.9098,67.2495,"""Ақпалас"" қонақ үйі"
518,Ahipara,NZ,56.7,light rain,-35.1667,173.1667,Ahipara Holiday Park
519,Skjervoy,NO,55.4,broken clouds,70.0311,20.9714,Skjervøy fiskecamp AS
520,Kargasok,RU,58.41,scattered clouds,59.0556,80.8572,Hotel Kargasok
521,Bambous Virieux,MU,70.21,scattered clouds,-20.3428,57.7575,Casa Tia Villa
523,Coari,BR,83.05,broken clouds,-4.085,-63.1414,Dellrey Hotel Center
524,Nola,IT,77.41,clear sky,40.922,14.5329,Palazzo Giordano Bruno
525,Ilulissat,GL,38.17,scattered clouds,69.2167,-51.1,Hotel Arctic
526,Ketchikan,US,55.87,mist,55.3422,-131.6461,Snow's Cove Lodge
527,Bhatkal,IN,78.19,light rain,13.9667,74.5667,Nilawar Palace
528,Tromso,NO,53.62,broken clouds,69.6496,18.957,"Radisson Blu Hotel, Tromsø"
529,Lata,PT,63.81,clear sky,40.1629,-8.3327,Casa Maquia
530,Ilhabela,BR,69.04,broken clouds,-23.7781,-45.3581,Ilha Flat Hotel
533,Chipata,ZM,57.34,scattered clouds,-13.6333,32.65,Protea Hotel by Marriott Chipata
534,Batemans Bay,AU,49.1,overcast clouds,-35.7167,150.1833,Batemans Bay Marina Resort
535,Mandalgovi,MN,64.63,overcast clouds,45.7625,106.2708,В.Ганбат
536,Sheridan,US,90.3,clear sky,44.8333,-106.9173,Comfort Inn & Suites
537,Concepcion Del Uruguay,AR,75.97,clear sky,-32.4825,-58.2372,Aires del Campo Cabañas y Hotel
538,General Pico,AR,57.47,broken clouds,-35.6566,-63.7568,Euskadi Hotel
539,Yongan,CN,63.91,broken clouds,39.6957,113.6871,Beiyue International Hotel
540,Aleppo,SY,72.75,clear sky,36.25,37.5,أمل دوريش
541,Pangkalanbuun,ID,74.05,overcast clouds,-2.6833,111.6167,Grand Kecubung Hotel
542,Komatipoort,ZA,64.08,clear sky,-25.4332,31.9548,Kruger View Backpackers
544,Nirsa,IN,82.49,few clouds,23.7833,86.7167,Sri Dadi Bhavan
545,Havoysund,NO,52.03,overcast clouds,70.9963,24.6622,Arctic View Glamping & Restaurant
546,Ajdabiya,LY,78.03,clear sky,30.7554,20.2263,Almadina Hotel
547,Dubbo,AU,35.73,few clouds,-32.25,148.6167,Quality Inn Dubbo International
548,Maningrida,AU,56.52,broken clouds,-12.0667,134.2667,Dhukurrdji Lodge
549,Esmeraldas,BR,70.84,clear sky,-19.7625,-44.3139,Forasteiro Pousada
550,Iqaluit,CA,51.53,few clouds,63.7506,-68.5145,Frobisher Inn
551,Denpasar,ID,80.26,scattered clouds,-8.65,115.2167,OYO 3156 Hotel Warta 2
552,Singapore,SG,77.2,broken clouds,1.2897,103.8501,The Fullerton Hotel Singapore
553,Hobyo,SO,76.42,overcast clouds,5.3505,48.5268,Iftin hotel hobyo
558,Moratuwa,LK,80.62,overcast clouds,6.773,79.8816,Sa Mansion By Yoho
559,Srivardhan,IN,80.15,overcast clouds,18.0333,73.0167,Savli Resort/Hotel - Shrivardhan
560,Cacoal,BR,91.33,scattered clouds,-11.4386,-61.4472,Hotel BR 364
561,Praya,CV,77.54,broken clouds,14.9215,-23.5087,LT Aparthotel
563,Dunedin,NZ,41.81,broken clouds,-45.8742,170.5036,Scenic Hotel Southern Cross
565,Shiraz,IR,89.04,broken clouds,29.6036,52.5388,Shams Hotel
567,Russell,US,90.68,broken clouds,32.3502,-85.1999,Macs
568,Mexico,PH,82.11,scattered clouds,15.0646,120.7198,stone place
569,Kijang,KR,76.73,light rain,35.2442,129.2139,Samyang Beach Villa
570,Turukhansk,RU,45.03,overcast clouds,65.8167,87.9833,"ООО ""Туруханская пушнина"""
571,Hay River,CA,71.56,broken clouds,60.8156,-115.7999,Ptarmigan Inn
572,Oistins,BB,86.09,few clouds,13.0667,-59.5333,Butterfly Beach Hotel
573,Grindavik,IS,53.55,light intensity drizzle,63.8424,-22.4338,Northern Light Inn & Max's Restaurant
574,Bairiki,KI,80.6,scattered clouds,1.3292,172.9752,Tarawa Boutique Hotel
575,Richards Bay,ZA,64.08,clear sky,-28.783,32.0377,BON Hotel Waterfront Richards Bay
576,Pointe Michel,DM,86.94,scattered clouds,15.25,-61.3833,Castle Comfort Lodge Dive Dominica
577,Vanimo,PG,75.96,overcast clouds,-2.6741,141.3028,Vahmoneh Lodge Vanimo
578,Ystad,SE,57.94,scattered clouds,55.4297,13.8204,Continental du Sud
579,Coxim,BR,86.09,broken clouds,-18.5067,-54.76,Hotel Avenida
580,Majene,ID,78.13,overcast clouds,-3.5403,118.9707,Kost Putri RABBANI
581,Itarema,BR,78.19,scattered clouds,-2.9248,-39.9167,"Sea Lounge! Bar, Club & Restaurant"
582,Grand-Santi,GF,76.68,overcast clouds,4.25,-54.3833,Hotel La Villa Couacou
583,Baillif,GP,85.5,broken clouds,16.0202,-61.7463,Hôtel Saint-Georges
584,Duluth,US,81.18,clear sky,46.7833,-92.1066,South Pier Inn
585,Palafrugell,ES,76.35,clear sky,41.9174,3.1631,Hotel La Torre
586,Joensuu,FI,61.29,light rain,62.6012,29.7632,Original Sokos Hotel Kimmel
587,Mahibadhoo,MV,81.91,overcast clouds,3.7833,72.9667,Omadhoo Inn
588,Katobu,ID,73.47,broken clouds,-4.9408,122.5276,La Ode Husein
590,Oyama,JP,82.58,clear sky,36.3,139.8,Toyoko Inn Oyama-eki Higashi-guchi No.1
591,Ocampo,MX,79.84,broken clouds,21.65,-101.5,Hotel Estancia del Vaquero
592,Kizukuri,JP,69.94,overcast clouds,40.8061,140.3861,Kashiwa Roman-sō
593,Sri Aman,MY,75.25,broken clouds,1.2376,111.4621,Seri Simanggang Hotel
594,Yanam,IN,76.53,light rain,16.7333,82.2167,The Regency Hotel
595,Riberalta,BO,93.4,scattered clouds,-10.9833,-66.1,Hotel Colonial
596,Nhulunbuy,AU,68.61,scattered clouds,-12.2333,136.7667,East Arnhem Real Estate
597,La Paz,BO,60.78,broken clouds,-16.5,-68.15,Hotel Presidente
598,Praia Da Vitoria,PT,68.76,broken clouds,38.7333,-27.0667,Hotel Branco I
599,Belem De Sao Francisco,BR,78.42,scattered clouds,-8.7539,-38.9658,Village Hotel
600,Berezovyy,RU,67.6,clear sky,51.6667,135.7,"Hotel ""Phoenix"""
601,Kyshtovka,RU,64.56,scattered clouds,56.555,76.6271,Uyutnaya Mini-Hotel
602,Narsaq,GL,46.09,clear sky,60.9167,-46.05,Sleep In Narsaq
605,Sussex,US,85.24,clear sky,41.1834,-74.6663,Top O Hill Farm - McDougals
606,Paita,PE,66.61,broken clouds,-5.0892,-81.1144,Hotel Náutico de Paita
607,Gboko,NG,73.9,broken clouds,7.3179,8.9951,Mavillah Apartment and Suites
608,Ginda,IN,67.19,overcast clouds,30.6945,78.4932,Sunil Bisht
609,Tarko-Sale,RU,56.37,few clouds,64.9225,77.785,Yubileynaya
610,Concepcion Del Oro,MX,82.09,few clouds,24.6333,-101.4167,Hotel Hacienda San Javier
611,Ratnagiri,IN,79.81,moderate rain,16.9833,73.3,Hotel Landmark
613,Bud,US,87.67,clear sky,39.447,-86.1758,Ted McQuinn Trust
614,Minsk,BY,58.75,overcast clouds,53.9,27.5667,Minsk Hotel
615,Port Lincoln,AU,54.05,overcast clouds,-34.7333,135.8667,Port Lincoln Hotel
616,Roald,NO,57.76,light rain,62.5833,6.1333,Flem Cabins
617,Rio Grande,BR,73.51,overcast clouds,-32.035,-52.0986,Hotel Atlântico Rio Grande
621,Anyama,CI,77.81,broken clouds,5.4946,-4.0518,Hotel la Residence des Hotes
622,Mancio Lima,BR,80.67,broken clouds,-7.6142,-72.8958,Motel Asas Do Desejo
623,Bay Roberts,CA,67.75,clear sky,47.5999,-53.2648,Stonewall Inn
625,Pochutla,MX,91.81,overcast clouds,15.7432,-96.4661,Hotel Posada San Jose
626,Wanning,CN,80.04,overcast clouds,18.8003,110.3967,Paradise Hotel
627,Robertsport,LR,77.4,light rain,6.7533,-11.3686,Kwepunha Retreat
628,Strezhevoy,RU,58.48,clear sky,60.7333,77.5889,Sibiryachka
631,Kathmandu,NP,71.82,broken clouds,27.7167,85.3167,Hotel Shanker Kathmandu
632,Loandjili,CG,70.39,broken clouds,-4.7561,11.8578,Résidence ARCHANGE
633,Starodub,RU,61.16,moderate rain,52.5844,32.7633,Apartment Kvartal on Gagarina
634,Xam Nua,LA,67.08,broken clouds,20.4197,104.0439,Xee Wang Guesthouse
635,Gat,IL,78.82,few clouds,31.61,34.7642,OlusHome
636,Bogale,MM,75.7,overcast clouds,16.2833,95.4,Aung Pin Lel Guest House
638,Najran,SA,84.85,light rain,17.4924,44.1277,محمد هادي ال فطيح
639,Buin,CL,48.74,moderate rain,-33.7333,-70.75,Paihuen
640,Pilar,BR,76.93,clear sky,-9.5972,-35.9567,Pousada e churrascaria Manguaba
642,Muravlenko,RU,58.48,few clouds,63.7898,74.523,Hostel Rus Muravlenko
643,Mashhad,IR,75.34,clear sky,36.297,59.6062,Khanye Sabz Hotel
646,Kalmunai,LK,83.14,overcast clouds,7.4167,81.8167,VS Villa
648,Kefamenanu,ID,67.57,overcast clouds,-9.4467,124.4781,Sokowindo Losmen
649,Qasigiannguit,GL,37.42,overcast clouds,68.8193,-51.1922,Almost HOME
650,Grand-Lahou,CI,75.6,broken clouds,5.1367,-5.0242,Hotel Beatitude de Grand Lahou
651,Krasnoselkup,RU,53.78,light rain,65.7,82.4667,Krasnosel'kupnefteprodukt
652,Karpogory,RU,62.71,broken clouds,64.0019,44.4451,Hotel Pinezhskaya Sloboda
653,Teruel,ES,69.01,clear sky,40.6667,-0.6667,La Parra
654,Kashira,RU,65.52,scattered clouds,54.8444,38.1669,"Гостиница Кашира, номер с кухней и ванной от 2500 руб. квартира на сутки Кашира."
655,Guane,CU,77.61,overcast clouds,22.2025,-84.0875,base de Campismo LosPortales de Guane
656,Podporozhye,RU,58.37,broken clouds,60.9112,34.1706,U Maksimycha
657,Yinchuan,CN,80.2,overcast clouds,38.4681,106.2731,JJ Inns - Yinchuan New Moon Square Branch
659,Tagusao,PH,79.39,overcast clouds,9.1924,117.8141,Caycay future beach resort
660,Merrill,US,80.37,broken clouds,45.1805,-89.6835,Prairie Motel
661,Parrita,CR,78.28,overcast clouds,9.5201,-84.3225,Beso del Viento
662,Surt,LY,79.09,clear sky,31.2089,16.5887,الهادي ابوشعاله سرت
663,Tiksi,RU,50.07,clear sky,71.6872,128.8694,Arktika
665,Pacific Grove,US,80.38,few clouds,36.6177,-121.9166,Lovers Point Inn
667,Hibbing,US,77.58,clear sky,47.4272,-92.9377,Mitchell-Tappan House - Carriage House Rentals
668,Soltsy,RU,56.66,scattered clouds,58.1239,30.3238,Otel'-Soltsy
669,Gravdal,NO,51.69,scattered clouds,68.1214,13.5031,Skreda Rorbusuiter
670,Xai-Xai,MZ,65.12,clear sky,-25.0519,33.6442,Complexo da Familia
671,Alingsas,SE,58.51,scattered clouds,57.9303,12.5335,Grand Hotel Alingsås
672,Irbeyskoye,RU,55.49,scattered clouds,55.6428,95.4522,"Gostinitsa ""Agul"""
674,Aguimes,ES,83.03,clear sky,27.9054,-15.4461,Hotel Villa de Aguimes
675,Vavuniya,LK,78.26,broken clouds,8.7514,80.4971,Thampa Hotel
676,Dhidhdhoo,MV,81.1,overcast clouds,6.8833,73.1,Dhidhoo beach
677,Lengshuijiang,CN,78.48,clear sky,27.6881,111.4294,Sheraton
678,Sao Jose Da Coroa Grande,BR,75.43,clear sky,-8.8978,-35.1478,Crôa Mares Hotel
679,Sabanagrande,CO,86.09,scattered clouds,10.7912,-74.7606,Malecón Ecoturistico Sabanagrande
681,Ewa Beach,US,83.98,overcast clouds,21.3156,-158.0072,Base Lodging
683,Matay,EG,85.01,clear sky,28.419,30.7792,Nag Aespen
684,Sabang,ID,82.53,light rain,5.8933,95.3214,Hotel Citra
685,Makungu,TZ,52.74,clear sky,-8.7333,35.2833,Complex
686,Jiblah,YE,69.58,overcast clouds,13.9216,44.1467,Tiger Tower Hotel
687,Dzaoudzi,YT,69.69,clear sky,-12.7887,45.2699,Le Rocher
688,Lembang,ID,58.1,scattered clouds,-6.8117,107.6175,Imah Seniman
689,Wittingen,DE,59.0,clear sky,52.7269,10.7361,Piep Landgasthaus Übernachtungsservice
690,Valparaiso,CL,53.47,light intensity shower rain,-33.0393,-71.6273,Hotel Ultramar
691,Kahta,TR,76.37,clear sky,37.7855,38.6237,KommageneİZ Hotel
692,Namibe,AO,63.41,clear sky,-15.1961,12.1522,Hotel Chik Chik Namibe
693,Benghazi,LY,78.53,clear sky,32.1167,20.0667,Tibesti Hotel
694,San Andres,CO,82.42,light intensity drizzle,12.5847,-81.7006,Hotel Arena Blanca
696,Nantucket,US,75.31,clear sky,41.2835,-70.0995,Jared Coffin House
